[
  {"name": "Quận 1, TP.HCM", "lat": 10.7757, "lng": 106.7004, "type": "district"},
  {"name": "Quận 3, TP.HCM", "lat": 10.7841, "lng": 106.6824, "type": "district"},
  {"name": "Quận 5, TP.HCM", "lat": 10.7540, "lng": 106.6634, "type": "district"},
  {"name": "Quận 7, TP.HCM", "lat": 10.7340, "lng": 106.7215, "type": "district"},
  {"name": "Quận 10, TP.HCM", "lat": 10.7720, "lng": 106.6680, "type": "district"},
  {"name": "Quận Bình Thạnh, TP.HCM", "lat": 10.8106, "lng": 106.7091, "type": "district"},
  {"name": "Quận Phú Nhuận, TP.HCM", "lat": 10.7951, "lng": 106.6790, "type": "district"},
  {"name": "Quận Tân Bình, TP.HCM", "lat": 10.8014, "lng": 106.6529, "type": "district"},
  {"name": "Quận Gò Vấp, TP.HCM", "lat": 10.8385, "lng": 106.6655, "type": "district"},
  {"name": "TP. Thủ Đức", "lat": 10.8425, "lng": 106.7715, "type": "district"},
  {"name": "Sân bay Tân Sơn Nhất", "lat": 10.8188, "lng": 106.6519, "type": "airport"},
  {"name": "Bến xe Miền Đông", "lat": 10.8155, "lng": 106.7102, "type": "station"},
  {"name": "Bến xe Miền Tây", "lat": 10.7398, "lng": 106.6188, "type": "station"},
  {"name": "Ga Sài Gòn", "lat": 10.7826, "lng": 106.6776, "type": "station"},
  {"name": "Chợ Bến Thành", "lat": 10.7720, "lng": 106.6983, "type": "landmark"},
  {"name": "Nhà thờ Đức Bà", "lat": 10.7798, "lng": 106.6991, "type": "landmark"},
  {"name": "Bưu điện Thành phố", "lat": 10.7798, "lng": 106.6997, "type": "landmark"},
  {"name": "Phố đi bộ Nguyễn Huệ", "lat": 10.7741, "lng": 106.7038, "type": "landmark"},
  {"name": "Landmark 81", "lat": 10.7949, "lng": 106.7218, "type": "landmark"},
  {"name": "Bitexco Financial Tower", "lat": 10.7717, "lng": 106.7041, "type": "landmark"},
  {"name": "Dinh Độc Lập", "lat": 10.7770, "lng": 106.6953, "type": "landmark"},
  {"name": "Bảo tàng Chứng tích Chiến tranh", "lat": 10.7795, "lng": 106.6921, "type": "landmark"},
  {"name": "Công viên Tao Đàn", "lat": 10.7758, "lng": 106.6914, "type": "park"},
  {"name": "Công viên 23/9", "lat": 10.7702, "lng": 106.6936, "type": "park"},
  {"name": "Thảo Cầm Viên Sài Gòn", "lat": 10.7882, "lng": 106.7050, "type": "park"},
  {"name": "Đại học Bách Khoa TP.HCM", "lat": 10.7727, "lng": 106.6580, "type": "school"},
  {"name": "Đại học Khoa học Tự nhiên", "lat": 10.7625, "lng": 106.6824, "type": "school"},
  {"name": "Đại học Kinh tế TP.HCM", "lat": 10.7837, "lng": 106.6948, "type": "school"},
  {"name": "Đại học RMIT", "lat": 10.7297, "lng": 106.6939, "type": "school"},
  {"name": "Đại học FPT TP.HCM", "lat": 10.8410, "lng": 106.8094, "type": "school"},
  {"name": "Vincom Center Đồng Khởi", "lat": 10.7770, "lng": 106.7022, "type": "mall"},
  {"name": "Saigon Centre Takashimaya", "lat": 10.7733, "lng": 106.7026, "type": "mall"},
  {"name": "Diamond Plaza", "lat": 10.7806, "lng": 106.6982, "type": "mall"},
  {"name": "Aeon Mall Tân Phú", "lat": 10.8011, "lng": 106.6189, "type": "mall"},
  {"name": "Aeon Mall Bình Tân", "lat": 10.7434, "lng": 106.6147, "type": "mall"},
  {"name": "Crescent Mall Phú Mỹ Hưng", "lat": 10.7287, "lng": 106.7186, "type": "mall"},
  {"name": "Vincom Mega Mall Thảo Điền", "lat": 10.8060, "lng": 106.7345, "type": "mall"},
  {"name": "Bệnh viện Chợ Rẫy", "lat": 10.7565, "lng": 106.6603, "type": "hospital"},
  {"name": "Bệnh viện Đại học Y Dược", "lat": 10.7612, "lng": 106.6663, "type": "hospital"},
  {"name": "Bệnh viện Nhi Đồng 1", "lat": 10.7705, "lng": 106.6699, "type": "hospital"},
  {"name": "Bệnh viện FV", "lat": 10.7298, "lng": 106.7197, "type": "hospital"},
  {"name": "Phú Mỹ Hưng, Quận 7", "lat": 10.7289, "lng": 106.7188, "type": "area"},
  {"name": "Thảo Điền, Thủ Đức", "lat": 10.8067, "lng": 106.7363, "type": "area"},
  {"name": "Chợ Lớn, Quận 5", "lat": 10.7507, "lng": 106.6586, "type": "area"},
  {"name": "Khu công nghệ cao Quận 9", "lat": 10.8512, "lng": 106.7950, "type": "area"},
  {"name": "Bến Bạch Đằng", "lat": 10.7708, "lng": 106.7066, "type": "landmark"},
  {"name": "Cầu Sài Gòn", "lat": 10.7950, "lng": 106.7222, "type": "landmark"},
  {"name": "Hầm Thủ Thiêm", "lat": 10.7705, "lng": 106.7100, "type": "landmark"}
]
